{"type": "FeatureCollection", "features": [{"type":"Feature","geometry":{"type":"Point","coordinates":[-76.94255,38.98692]},"properties":{"cartodb_id":11,"marker_symbol":"chemist","marker_color":"#FBA026","name":"UMD R User's Group","website":"<a href='http://umd-r-users.github.io/studyGroup/'>UMD R User's Group</a>","location":"College Park, Maryland, USA"}},{"type":"Feature","geometry":{"type":"Point","coordinates":[-71.53441,41.486195]},"properties":{"cartodb_id":27,"marker_symbol":"chemist","marker_color":"#FBA026","name":"Rhody R Stats","website":"<a href='http://rhodyrstats.org/'>Rhody R Stats</a>","location":"South Kingstown, Rhode Island, USA"}},{"type":"Feature","geometry":{"type":"Point","coordinates":[-122.419416,37.774929]},"properties":{"cartodb_id":5,"marker_symbol":"chemist","marker_color":"#FBA026","name":"San Francisco GeoViz","website":"<a href='https://github.com/colleenboodleman/Womens-GeoViz-StudyGroup'>Women in GeoViz Study Group</a>","location":"San Francisco, California, USA"}},{"type":"Feature","geometry":{"type":"Point","coordinates":[-122.92124,49.27958]},"properties":{"cartodb_id":8,"marker_symbol":"chemist","marker_color":"#FBA026","name":"SFU Scientific Programming Study Group","website":"<a href='http://sciprog.ca/'>SFU Scientific Programming Study Group</a>","location":"Burnaby, B.C., Canada"}},{"type":"Feature","geometry":{"type":"Point","coordinates":[76.955832,11.016844]},"properties":{"cartodb_id":2,"marker_symbol":"chemist","marker_color":"#FBA026","name":"Coimbatore Study Group","website":"<a href='https://foxiot.github.io/studyGroup/'>IoT Research Group</a>","location":"Coimbatore, Tamil Nadu, India"}},{"type":"Feature","geometry":{"type":"Point","coordinates":[-123.24997,49.26747]},"properties":{"cartodb_id":1,"marker_symbol":"chemist","marker_color":"#FBA026","name":"Vancouver R Study Group","website":"<a href='http://minisciencegirl.github.io/studyGroup/'>Vancouver R Study Group</a>","location":"Vancouver, B.C., Canada"}},{"type":"Feature","geometry":{"type":"Point","coordinates":[-68.196586,44.366245]},"properties":{"cartodb_id":4,"marker_symbol":"chemist","marker_color":"#FBA026","name":"JAX Lab Study Group - ME/CT","website":"<a href='https://github.com/smcclatchy/studyGroup'>JAX Lab Study Group</a>","location":"Bar Harbor, Maine, USA"}},{"type":"Feature","geometry":{"type":"Point","coordinates":[72.571362,23.022505]},"properties":{"cartodb_id":3,"marker_symbol":"chemist","marker_color":"#FBA026","name":"Mozilla Gujarat Study Group - Ahmedabad","website":"<a href='https://github.com/drashti4/studyGroup/'>Gujarat Study Group</a>","location":"Paldi Kankaj, Gujarat, India"}},{"type":"Feature","geometry":{"type":"Point","coordinates":[-87.6298,41.87811]},"properties":{"cartodb_id":7,"marker_symbol":"chemist","marker_color":"#FBA026","name":"Data Open Space Chicago","website":"<a href='http://dataopenspace.github.io/studyGroup/' target=\"_blank\">Data Open Space</a>","location":"Chicago, Illinois, USA"}},{"type":"Feature","geometry":{"type":"Point","coordinates":[-79.39566,43.66289]},"properties":{"cartodb_id":6,"marker_symbol":"chemist","marker_color":"#FBA026","name":"University of Toronto Scientific Coders","website":"<a href='https://uoftcoders.github.io/studyGroup/'>University of Toronto Scientific Coders</a>","location":"Toronto, Ontario, Canada"}},{"type":"Feature","geometry":{"type":"Point","coordinates":[91.87139,24.89778]},"properties":{"cartodb_id":10,"marker_symbol":"chemist","marker_color":"#FBA026","name":"Mozilla Science Study Group in Bangladesh","website":"<a href='http://softowaha.github.io/studyGroup/'>Mozilla Science Study Group in Bangladesh</a>","location":"Sylhet, Bangladesh"}},{"type":"Feature","geometry":{"type":"Point","coordinates":[91.90399,24.91193]},"properties":{"cartodb_id":9,"marker_symbol":"chemist","marker_color":"#FBA026","name":"Sylhet Engineering College Study Group","website":"<a href='http://sylhet-engineering-college.github.io/studyGroup/'>SEC Study Group</a>","location":"Sylhet, Bangladesh"}},{"type":"Feature","geometry":{"type":"Point","coordinates":[-93.22773,44.97399]},"properties":{"cartodb_id":13,"marker_symbol":"chemist","marker_color":"#FBA026","name":"Univeristiy of Minnesota Hacky Hour","website":"<a href='http://schae234.github.io/studyGroup/'>UMN Hacky Hour</a>","location":"Minneapolis, Minnesota, USA"}},{"type":"Feature","geometry":{"type":"Point","coordinates":[80.0231,9.68515]},"properties":{"cartodb_id":12,"marker_symbol":"chemist","marker_color":"#FBA026","name":"Open Desk Study Group","website":"<a href='http://nifrasismail.github.io/studyGroup/'>Open Desk Study Group</a>","location":"Kokuvil East, Sri Lanka"}},{"type":"Feature","geometry":{"type":"Point","coordinates":[170.51386,-45.8651]},"properties":{"cartodb_id":14,"marker_symbol":"chemist","marker_color":"#FBA026","name":"Otago Study Group","website":"<a href='https://github.com/OtagoStudyGroup/studyGroup'>Otago Study Group</a>","location":"Dunedin, Otago, New Zealand"}},{"type":"Feature","geometry":{"type":"Point","coordinates":[-119.6982,34.4208]},"properties":{"cartodb_id":30,"marker_symbol":"chemist","marker_color":"#FBA026","name":"University of California, Santa Barbara eco-data-science","website":"<a href='http://eco-data-science.github.io/'>UCSB eco-data-science</a>","location":"Berkeley, California, USA"}},{"type":"Feature","geometry":{"type":"Point","coordinates":[32.559899,15.500654]},"properties":{"cartodb_id":21,"marker_symbol":"chemist","marker_color":"#FBA026","name":"Khartoum NGS group","website":"<a href='http://zo0z.github.io/studyGroup/'>Khartoum NGS group</a>","location":"Khartoum, Sudan"}},{"type":"Feature","geometry":{"type":"Point","coordinates":[-71.1054,42.3505]},"properties":{"cartodb_id":18,"marker_symbol":"chemist","marker_color":"#FBA026","name":"Boston University Study Group","website":"<a href='http://study.bu.edu/'>Boston University Study Group</a>","location":"Boston, Massachusetts, USA"}},{"type":"Feature","geometry":{"type":"Point","coordinates":[25.60864,-25.82617]},"properties":{"cartodb_id":15,"marker_symbol":"chemist","marker_color":"#FBA026","name":"Genomics Hacky Hour","website":"<a href='http://anelda.github.io/GenomicsHackyHour/'>Genomics Hacky Hour</a>","location":"Mahikeng, 2790, South Africa"}},{"type":"Feature","geometry":{"type":"Point","coordinates":[10.17909,36.82366]},"properties":{"cartodb_id":16,"marker_symbol":"chemist","marker_color":"#FBA026","name":"Institut Pasteur de Tunis Study Group","website":"<a href='http://amelgh.github.io/IPT_Tunisia/'>Institut Pasteur de Tunis Study Group</a>","location":"Tunis, Tunisia"}},{"type":"Feature","geometry":{"type":"Point","coordinates":[-64.36682,45.08857]},"properties":{"cartodb_id":17,"marker_symbol":"chemist","marker_color":"#FBA026","name":"R-Bar Scientific Programming Study Group at Acadia","website":"<a href='http://remi-daigle.github.io/studyGroup/'>R-Bar Scientific Programming Study Group at Acadia</a>","location":"Wolfville, NS B0P, Canada"}},{"type":"Feature","geometry":{"type":"Point","coordinates":[-41.746804,-22.334081]},"properties":{"cartodb_id":19,"marker_symbol":"chemist","marker_color":"#FBA026","name":"GER NUPEM/UFRJ","website":"<a href='http://gabano.github.io/studyGroup/'>GER NUPEM/UFRJ</a>","location":"Vila Badejo, Macaé - RJ, Brazil"}},{"type":"Feature","geometry":{"type":"Point","coordinates":[144.960913,-37.799741]},"properties":{"cartodb_id":20,"marker_symbol":"chemist","marker_color":"#FBA026","name":"University of Melbourne Hacky Hour","website":"<a href='http://melbourne.resbaz.edu.au/hackyhour'>University of Melbourne Hacky Hour</a>","location":"Melbourne University, Parkville VIC 3010, Australia"}},{"type":"Feature","geometry":{"type":"Point","coordinates":[145.036772,-37.822149]},"properties":{"cartodb_id":22,"marker_symbol":"chemist","marker_color":"#FBA026","name":"Swinburne Hacker Within","website":"<a href='http://www.thehackerwithin.org/swinburne/'>Swinburne Hacker Within</a>","location":"Glenferrie Station, Hawthorn VIC 3122, Australia"}},{"type":"Feature","geometry":{"type":"Point","coordinates":[152.997996,-27.498249]},"properties":{"cartodb_id":23,"marker_symbol":"chemist","marker_color":"#FBA026","name":"St. Lucia Hacky Hour","website":"<a href='http://samhames.github.io/hackyhour-stlucia/about/'>St. Lucia Hacky Hour</a>","location":"St Lucia QLD 4067, Australia"}},{"type":"Feature","geometry":{"type":"Point","coordinates":[6.05512,46.23111]},"properties":{"cartodb_id":28,"marker_symbol":"chemist","marker_color":"#FBA026","name":"CERN Study Group","website":"<a href='http://cernstudygroup.github.io/'>CERN Study Group</a>","location":"Geneva, Switzerland"}},{"type":"Feature","geometry":{"type":"Point","coordinates":[153.050836,-27.553598]},"properties":{"cartodb_id":24,"marker_symbol":"chemist","marker_color":"#FBA026","name":"Griffith University Hacky Hour","website":"<a href='https://hackyhourgriffith.wordpress.com/'>Griffith University Hacky Hour</a>","location":"Nathan QLD 4111, Australia"}},{"type":"Feature","geometry":{"type":"Point","coordinates":[174.766919,-36.852338]},"properties":{"cartodb_id":25,"marker_symbol":"chemist","marker_color":"#FBA026","name":"Hacky Hour @ Auckland","website":"<a href='http://uoa-eresearch.github.io/HackyHour/'>Hacky Hour @ Auckland</a>","location":"Auckland, New Zealand"}},{"type":"Feature","geometry":{"type":"Point","coordinates":[-114.137989,51.07816]},"properties":{"cartodb_id":26,"marker_symbol":"chemist","marker_color":"#FBA026","name":"Ecological Genomics at U of C","website":"<a href='http://jvamosi.github.io/studyGroup/'>Ecological Genomics at U of C</a>","location":"Northwest Calgary, Calgary, AB, Canada"}},{"type":"Feature","geometry":{"type":"Point","coordinates":[115.890847,-32.004804]},"properties":{"cartodb_id":29,"marker_symbol":"chemist","marker_color":"#FBA026","name":"Curtin University Hacky Hour","website":"<a href='http://cuhackyhour.github.io/'>Curtin University Hacky Hour</a>","location":"Bentley WA 6102, Australia"}},{"type":"Feature","geometry":{"type":"Point","coordinates":[-122.6765,45.5231]},"properties":{"cartodb_id":31,"marker_symbol":"chemist","marker_color":"#FBA026\n\n","name":"OHSU Code Club","website":"<a href='https://daniellecrobinson.github.io/OHSUCodeClub/'>OHSU Code Club</a>\n\n","location":"Portland, Oregon, USA"}},{"type":"Feature","geometry":{"type":"Point","coordinates":[-123.246,49.2606]},"properties":{"cartodb_id":33,"marker_symbol":"chemist","marker_color":"#FBA026","name":"IOF Study Group - UBC","website":"<a href='https://jepa.github.io/studyGroup/'>IOF Study Group - UBC</a>\n","location":"Vancouver, BC, Canada"}},{"type":"Feature","geometry":{"type":"Point","coordinates":[-2.2426,53.4808]},"properties":{"cartodb_id":43,"marker_symbol":"chemist","marker_color":"#FBA026","name":"Fermilab Study Group","website":"<a href='https://fermilabstudygroup.github.io/studyGroup/'>FermiLab Study Group</a>","location":"Manchester, U.K."}},{"type":"Feature","geometry":{"type":"Point","coordinates":[-51.9253,14.235]},"properties":{"cartodb_id":34,"marker_symbol":"chemist","marker_color":"#FBA026","name":"Brazil Mozillians Study Group","website":"<a href='https://mozillabrasil.github.io/studyGroup/'>Brazil Mozillians Study Group</a>","location":"Brazil"}},{"type":"Feature","geometry":{"type":"Point","coordinates":[4.9557,52.3558]},"properties":{"cartodb_id":44,"marker_symbol":"chemist","marker_color":"#FBA026","name":"University of Amsterdam Study Group","website":"<a href='https://mgalland.github.io/studyGroup/'>University of Amsterdam Study Group</a>","location":"Amsterdam, Netherlands"}},{"type":"Feature","geometry":{"type":"Point","coordinates":[-73.1773,44.0083]},"properties":{"cartodb_id":32,"marker_symbol":"chemist","marker_color":"#FBA026","name":"Middlebury Humanities Data in R Group","website":"<a href='https://rkclement.github.io/studyGroup/'>Middlebury Humanities Data in R</a>\n","location":"Middlebury, Vermont, USA"}},{"type":"Feature","geometry":{"type":"Point","coordinates":[-123.0726,44.0448]},"properties":{"cartodb_id":45,"marker_symbol":"chemist","marker_color":"#FBA026","name":"University of Oregon Club","website":"<a href='https://uodatascience.github.io/club/'>University of Oregon Club</a>","location":"Eugene, Oregon, USA"}},{"type":"Feature","geometry":{"type":"Point","coordinates":[-48.548,27.5954]},"properties":{"cartodb_id":35,"marker_symbol":"chemist","marker_color":"#FBA026","name":"Florianópolis Study Group","website":"<a href='https://zilmarr.github.io/studyGroup/'>Florianópolis Study Group</a>","location":"Florianópolis, Brazil"}},{"type":"Feature","geometry":{"type":"Point","coordinates":[85.324,27.7172]},"properties":{"cartodb_id":36,"marker_symbol":"chemist","marker_color":"#FBA026","name":"Mozilla Science Study Group Nepal","website":"<a href='https://nikeshbalami.github.io/studyGroup/'>Mozilla Science Study Group Nepal</a>","location":"Kathmandu, Nepal"}},{"type":"Feature","geometry":{"type":"Point","coordinates":[-99.1332,19.4326]},"properties":{"cartodb_id":37,"marker_symbol":"chemist","marker_color":"#FBA026","name":"Mozilla Mexico Study Group","website":"<a href='http://heeled-jim.github.io/studyGroup/'>Mozilla Mexico Study Group</a>","location":"Mexico City, Mexico"}},{"type":"Feature","geometry":{"type":"Point","coordinates":[-76.4841,42.4489]},"properties":{"cartodb_id":38,"marker_symbol":"chemist","marker_color":"#FBA026","name":"Cornell University Study Group","website":"<a href='http://emdupre.github.io/studyGroup/'>Cornell University Study Group</a>","location":"Ithaca, New York, USA"}},{"type":"Feature","geometry":{"type":"Point","coordinates":[-110.9265,32.2217]},"properties":{"cartodb_id":39,"marker_symbol":"chemist","marker_color":"#FBA026","name":"ResBazAz Study Group","website":"<a href='http://resbazaz.github.io/studyGroup/'>ResBazAZ Study Group</a>","location":"Tucson, Arizona"}},{"type":"Feature","geometry":{"type":"Point","coordinates":[-83.7382,42.278]},"properties":{"cartodb_id":40,"marker_symbol":"chemist","marker_color":"#FBA026","name":"University of Michigan Study Group","website":"<a href='http://jakecarls.github.io/studyGroup/'>University of Michigan Study Group</a>","location":"Ann Arbor, Michigan, USA"}},{"type":"Feature","geometry":{"type":"Point","coordinates":[6.7937,51.1924]},"properties":{"cartodb_id":41,"marker_symbol":"chemist","marker_color":"#FBA026","name":"Universität Düsseldorf Coders Group","website":"<a href='http://openhhucoders.github.io/studyGroup/'>Universität Düsseldorf Coders Group</a>","location":"Düsseldorf, Germany"}},{"type":"Feature","geometry":{"type":"Point","coordinates":[80.3319,26.4499]},"properties":{"cartodb_id":42,"marker_symbol":"chemist","marker_color":"#FBA026","name":"Uttar Pradesh Study Group","website":"<a href='http://amitkumarj441.github.io/studyGroup/'>Uttar Pradesh</a>","location":"Kanpur, India"}}]}